[{"type":"station","subtype":"tram","lineNumber":"t1","icon":"tram-t1.png","center":{"lat":"48.906523347819075","lng":"2.443866526044496"},"title":"Hotel de ville de bobigny","infos":"Boulevard lenine 93008","openDataID":"3798452"},{"type":"station","subtype":"tram","lineNumber":"t1","icon":"tram-t1.png","center":{"lat":"48.90698613782764","lng":"2.4387686025565873"},"title":"Liberation","infos":"142 avenue jean jaures 93008","openDataID":"3798453"},{"type":"station","subtype":"tram","lineNumber":"t1","icon":"tram-t1.png","center":{"lat":"48.906761681704474","lng":"2.4385091301190283"},"title":"Liberation","infos":"Face 142 avenue jean jaures 93008","openDataID":"3798454"},{"type":"station","subtype":"tram","lineNumber":"t1","icon":"tram-t1.png","center":{"lat":"48.90973714291589","lng":"2.4376287301070017"},"title":"La ferme","infos":"188 avenue jean jaures 93008","openDataID":"3798455"},{"type":"station","subtype":"tram","lineNumber":"t1","icon":"tram-t1.png","center":{"lat":"48.90961161086947","lng":"2.4372876357087225"},"title":"La ferme","infos":"Face 188 avenue jean jaures 93008","openDataID":"3798456"},{"type":"station","subtype":"tram","lineNumber":"t1","icon":"tram-t1.png","center":{"lat":"48.91331601792998","lng":"2.4351813603150196"},"title":"Escadrille normandie niemen","infos":"Rue de stalingrad 93008","openDataID":"3798457"},{"type":"station","subtype":"tram","lineNumber":"t1","icon":"tram-t1.png","center":{"lat":"48.913091432241124","lng":"2.4350718560773505"},"title":"Escadrille normandie niemen","infos":"Rue de stalingrad 93008","openDataID":"3798458"},{"type":"station","subtype":"tram","lineNumber":"t1","icon":"tram-t1.png","center":{"lat":"48.91469506566653","lng":"2.4301388749318393"},"title":"Gaston roulaud","infos":"73 bis r de stalingrad 93008","openDataID":"3798510"},{"type":"station","subtype":"tram","lineNumber":"t1","icon":"tram-t1.png","center":{"lat":"48.91495555038647","lng":"2.430316602872137"},"title":"Gaston roulaud","infos":"Face 73 bis rue de stalingrad 93029","openDataID":"3798459"},{"type":"station","subtype":"tram","lineNumber":"t1","icon":"tram-t1.png","center":{"lat":"48.90652700036462","lng":"2.4496742930127837"},"title":"Bobigny pablo picasso","infos":"Rue carnot 93008","openDataID":"3798450"},{"type":"station","subtype":"tram","lineNumber":"t1","icon":"tram-t1.png","center":{"lat":"48.90667646849791","lng":"2.443485109369775"},"title":"Hotel de ville de bobigny","infos":"Boulevard lenine 93008","openDataID":"3798451"},{"type":"station","subtype":"tram","lineNumber":"t1","icon":"tram-t1.png","center":{"lat":"48.92283520846237","lng":"2.40676511780942"},"title":"Danton","infos":"97 avenue jean jaures 93027","openDataID":"3798465"},{"type":"station","subtype":"tram","lineNumber":"t1","icon":"tram-t1.png","center":{"lat":"48.922538782210765","lng":"2.4065192459924463"},"title":"Danton","infos":"Face 97 avenue jean jaures 93027","openDataID":"3798466"},{"type":"station","subtype":"tram","lineNumber":"t1","icon":"tram-t1.png","center":{"lat":"48.920549824355035","lng":"2.411248597997996"},"title":"La courneuve 8 mai 1945","infos":"Place du 8 mai 1945 93027","openDataID":"3798463"},{"type":"station","subtype":"tram","lineNumber":"t1","icon":"tram-t1.png","center":{"lat":"48.920901079079776","lng":"2.4100081314988717"},"title":"La courneuve 8 mai 1945","infos":"Place du 8 mai 1945 93027","openDataID":"3798464"},{"type":"station","subtype":"tram","lineNumber":"t1","icon":"tram-t1.png","center":{"lat":"48.92741682316744","lng":"2.3929143192774025"},"title":"Hotel de ville de la courneuve","infos":"76 rue de la convention 93027","openDataID":"3798469"},{"type":"station","subtype":"tram","lineNumber":"t1","icon":"tram-t1.png","center":{"lat":"48.92482454317505","lng":"2.400998894186525"},"title":"Stade geo andre","infos":"31 avenue jean jaures 93027","openDataID":"3798467"},{"type":"station","subtype":"tram","lineNumber":"t1","icon":"tram-t1.png","center":{"lat":"48.924348009319594","lng":"2.4014210832193363"},"title":"Stade geo andre","infos":"Face 31 avenue jean jaures 93027","openDataID":"3798468"},{"type":"station","subtype":"tram","lineNumber":"t1","icon":"tram-t1.png","center":{"lat":"48.91811947930612","lng":"2.417231454306985"},"title":"Drancy avenir","infos":"230 r de stalingrad 93029","openDataID":"3798461"},{"type":"station","subtype":"tram","lineNumber":"t1","icon":"tram-t1.png","center":{"lat":"48.91909197580446","lng":"2.4143420096346087"},"title":"Maurice lachatre","infos":"286 rue de stalingrad 93029","openDataID":"3798462"},{"type":"station","subtype":"tram","lineNumber":"t1","icon":"tram-t1.png","center":{"lat":"48.91586668357142","lng":"2.425791189982239"},"title":"Hopital avicenne","infos":"124 rue de stalingrad 93029","openDataID":"3798460"},{"type":"station","subtype":"tram","lineNumber":"t1","icon":"tram-t1.png","center":{"lat":"48.93375423495771","lng":"2.3136158819443446"},"title":"Parc des chanteraines","infos":"0 av du general de gaulle 92036","openDataID":"3798495"},{"type":"station","subtype":"tram","lineNumber":"t1","icon":"tram-t1.png","center":{"lat":"48.93408672982138","lng":"2.313520246800056"},"title":"Parc des chanteraines","infos":"0 av du general charles de gaulle 92036","openDataID":"3798494"},{"type":"station","subtype":"tram","lineNumber":"t1","icon":"tram-t1.png","center":{"lat":"48.93446552176436","lng":"2.3216771403957503"},"title":"Chemin des reniers","infos":"0 av de verdun 92078","openDataID":"3798493"},{"type":"station","subtype":"tram","lineNumber":"t1","icon":"tram-t1.png","center":{"lat":"48.93477106412093","lng":"2.321595204519359"},"title":"Chemin des reniers","infos":"102 av de verdun 92078","openDataID":"3798492"},{"type":"station","subtype":"tram","lineNumber":"t1","icon":"tram-t1.png","center":{"lat":"48.93481656253936","lng":"2.3267377244265623"},"title":"La noue","infos":"0 av de verdun 92078","openDataID":"3798491"},{"type":"station","subtype":"tram","lineNumber":"t1","icon":"tram-t1.png","center":{"lat":"48.93513110836804","lng":"2.326805864324871"},"title":"La noue","infos":"0 av de verdun 92078","openDataID":"3798490"},{"type":"station","subtype":"tram","lineNumber":"t1","icon":"tram-t1.png","center":{"lat":"48.932735720625814","lng":"2.3015584759131658"},"title":"Timbaud","infos":"8 r pierre graindorge 92036","openDataID":"3798499"},{"type":"station","subtype":"tram","lineNumber":"t1","icon":"tram-t1.png","center":{"lat":"48.93349938568873","lng":"2.3008350121717913"},"title":"Timbaud","infos":"12 r pierre timbaud 92036","openDataID":"3798498"},{"type":"station","subtype":"tram","lineNumber":"t1","icon":"tram-t1.png","center":{"lat":"48.933132709126006","lng":"2.3072461782928078"},"title":"Gare de gennevilliers","infos":"0 av du general de gaulle 92036","openDataID":"3798497"},{"type":"station","subtype":"tram","lineNumber":"t1","icon":"tram-t1.png","center":{"lat":"48.93350113617405","lng":"2.3071095615256496"},"title":"Gare de gennevilliers","infos":"0 av du general charles de gaulle 92036","openDataID":"3798496"},{"type":"station","subtype":"tram","lineNumber":"t1","icon":"tram-t1.png","center":{"lat":"48.938635015545344","lng":"2.3556436660955438"},"title":"Marche de saint denis","infos":"Face 3 boulevard carnot 93066","openDataID":"3798480"},{"type":"station","subtype":"tram","lineNumber":"t1","icon":"tram-t1.png","center":{"lat":"48.93725177469419","lng":"2.3500502359001296"},"title":"Theatre gerard philipe","infos":"Face46 bis boulevard jules guesde 93066","openDataID":"3798482"},{"type":"station","subtype":"tram","lineNumber":"t1","icon":"tram-t1.png","center":{"lat":"48.93842831013453","lng":"2.3556981591811432"},"title":"Marche de saint denis","infos":"3 boulevard carnot 93066","openDataID":"3798481"},{"type":"station","subtype":"tram","lineNumber":"t1","icon":"tram-t1.png","center":{"lat":"48.93602997362251","lng":"2.3453847145473845"},"title":"Gare de st denis rer","infos":"Rue du port 93066","openDataID":"3798484"},{"type":"station","subtype":"tram","lineNumber":"t1","icon":"tram-t1.png","center":{"lat":"48.937224787599476","lng":"2.3502957727621445"},"title":"Theatre gerard philipe","infos":"46 bis boulevard jules guesde 93066","openDataID":"3798483"},{"type":"station","subtype":"tram","lineNumber":"t1","icon":"tram-t1.png","center":{"lat":"48.93588643026154","lng":"2.339969233050552"},"title":"L'ile saint denis","infos":"1 r mechin 93039","openDataID":"3798486"},{"type":"station","subtype":"tram","lineNumber":"t1","icon":"tram-t1.png","center":{"lat":"48.93591315476924","lng":"2.3452346456266597"},"title":"Gare de st denis rer","infos":"Rue du port 93066","openDataID":"3798485"},{"type":"station","subtype":"tram","lineNumber":"t1","icon":"tram-t1.png","center":{"lat":"48.93577857776938","lng":"2.3341172700973267"},"title":"Mairie de villeneuve la garenne","infos":"12 av de verdun 92078","openDataID":"3798488"},{"type":"station","subtype":"tram","lineNumber":"t1","icon":"tram-t1.png","center":{"lat":"48.93567973727426","lng":"2.3397646087114214"},"title":"L'ile saint denis","infos":"1 r mechin 93039","openDataID":"3798487"},{"type":"station","subtype":"tram","lineNumber":"t1","icon":"tram-t1.png","center":{"lat":"48.89523832538295","lng":"2.4596680533915762"},"title":"Noisy le sec rer","infos":"118 rue jean jaures 93053","openDataID":"3798439"},{"type":"station","subtype":"tram","lineNumber":"t1","icon":"tram-t1.png","center":{"lat":"48.93541011700662","lng":"2.3341172924172344"},"title":"Mairie de villeneuve la garenne","infos":"0 av de verdun 92078","openDataID":"3798489"},{"type":"station","subtype":"tram","lineNumber":"t1","icon":"tram-t1.png","center":{"lat":"48.90788894559004","lng":"2.4539309307063446"},"title":"Jean rostand","infos":"247 avenue paul vaillant couturier 93008","openDataID":"3798447"},{"type":"station","subtype":"tram","lineNumber":"t1","icon":"tram-t1.png","center":{"lat":"48.929906984040194","lng":"2.283310932940069"},"title":"Les courtilles","infos":"0 av de la redoute 92004","openDataID":"3798505"},{"type":"station","subtype":"tram","lineNumber":"t1","icon":"tram-t1.png","center":{"lat":"48.90765542904627","lng":"2.453780435927193"},"title":"Jean rostand","infos":"Face 247 avenue paul vaillant couturier 93008","openDataID":"3798448"},{"type":"station","subtype":"tram","lineNumber":"t1","icon":"tram-t1.png","center":{"lat":"48.93011362688258","lng":"2.283187962763052"},"title":"Les courtilles","infos":"0 av de la redoute 92004","openDataID":"3798504"},{"type":"station","subtype":"tram","lineNumber":"t1","icon":"tram-t1.png","center":{"lat":"48.91881351182381","lng":"2.414137048246282"},"title":"Maurice lachatre","infos":"267 r de stalingrad 93008","openDataID":"3798507"},{"type":"station","subtype":"tram","lineNumber":"t1","icon":"tram-t1.png","center":{"lat":"48.906831915991035","lng":"2.459463678626273"},"title":"Auguste delaune","infos":"279 avenue paul vaillant couturier 93008","openDataID":"3798445"},{"type":"station","subtype":"tram","lineNumber":"t1","icon":"tram-t1.png","center":{"lat":"48.90656236027675","lng":"2.459408509819116"},"title":"Auguste delaune","infos":"Face 279 avenue paul vaillant couturier 93008","openDataID":"3798446"},{"type":"station","subtype":"tram","lineNumber":"t1","icon":"tram-t1.png","center":{"lat":"48.93164681232992","lng":"2.3776422444894494"},"title":"Cosmonautes","infos":"Face 63 r de saint denis 93027","openDataID":"3798506"},{"type":"station","subtype":"tram","lineNumber":"t1","icon":"tram-t1.png","center":{"lat":"48.91565108683878","lng":"2.4256681007873255"},"title":"Hopital avicenne","infos":"Face 124 rue de stalingrad 93008","openDataID":"3798509"},{"type":"station","subtype":"tram","lineNumber":"t1","icon":"tram-t1.png","center":{"lat":"48.90531071691113","lng":"2.470093770476626"},"title":"Pont de bondy","infos":"Route de stains 93053","openDataID":"3798443"},{"type":"station","subtype":"tram","lineNumber":"t1","icon":"tram-t1.png","center":{"lat":"48.90523022774547","lng":"2.4697391086356455"},"title":"Pont de bondy","infos":"Route de stains 93053","openDataID":"3798444"},{"type":"station","subtype":"tram","lineNumber":"t1","icon":"tram-t1.png","center":{"lat":"48.91778705258113","lng":"2.4170945791008953"},"title":"Drancy avenir","infos":"Face 230 rue de stalingrad 93008","openDataID":"3798508"},{"type":"station","subtype":"tram","lineNumber":"t1","icon":"tram-t1.png","center":{"lat":"48.9000225902207","lng":"2.4652682831624073"},"title":"Petit noisy","infos":"72 avenue gallieni 93053","openDataID":"3798441"},{"type":"station","subtype":"tram","lineNumber":"t1","icon":"tram-t1.png","center":{"lat":"48.90019369599354","lng":"2.4649415480257995"},"title":"Petit noisy","infos":"71 avenue gallieni 93053","openDataID":"3798442"},{"type":"station","subtype":"tram","lineNumber":"t1","icon":"tram-t1.png","center":{"lat":"48.89542736283305","lng":"2.459368632850764"},"title":"Noisy le sec rer","infos":"119 rue jean jaures 93053","openDataID":"3798440"},{"type":"station","subtype":"tram","lineNumber":"t1","icon":"tram-t1.png","center":{"lat":"48.932015347893554","lng":"2.3774242929280556"},"title":"Cosmonautes","infos":"63 rue de saint denis 93066","openDataID":"3798473"},{"type":"station","subtype":"tram","lineNumber":"t1","icon":"tram-t1.png","center":{"lat":"48.92996388514459","lng":"2.38414692421841"},"title":"La courneuve six routes","infos":"Rue de saint denis 93027","openDataID":"3798472"},{"type":"station","subtype":"tram","lineNumber":"t1","icon":"tram-t1.png","center":{"lat":"48.9302423872842","lng":"2.3843790473947437"},"title":"La courneuve six routes","infos":"Rue de saint denis 93027","openDataID":"3798471"},{"type":"station","subtype":"tram","lineNumber":"t1","icon":"tram-t1.png","center":{"lat":"48.92712929297018","lng":"2.3928049010519836"},"title":"Hotel de ville de la courneuve","infos":"74 rue de la convention 93027","openDataID":"3798470"},{"type":"station","subtype":"tram","lineNumber":"t1","icon":"tram-t1.png","center":{"lat":"48.936179994214235","lng":"2.3641547984668994"},"title":"Cimetiere de saint denis","infos":"32 boulevard de la commune de paris 93066","openDataID":"3798477"},{"type":"station","subtype":"tram","lineNumber":"t1","icon":"tram-t1.png","center":{"lat":"48.9364226573768","lng":"2.3640730779531007"},"title":"Cimetiere de saint denis","infos":"Avenue de la commune de paris 93066","openDataID":"3798476"},{"type":"station","subtype":"tram","lineNumber":"t1","icon":"tram-t1.png","center":{"lat":"48.93385091413792","lng":"2.3700871709613796"},"title":"Hopital delafontaine","infos":"Route de la courneuve 93066","openDataID":"3798475"},{"type":"station","subtype":"tram","lineNumber":"t1","icon":"tram-t1.png","center":{"lat":"48.93403058728353","lng":"2.3703191728194346"},"title":"Hopital delafontaine","infos":"Route de la courneuve 93066","openDataID":"3798474"},{"type":"station","subtype":"tram","lineNumber":"t1","icon":"tram-t1.png","center":{"lat":"48.93339847895917","lng":"2.2946423865699295"},"title":"Le village","infos":"92 r pierre timbaud 92036","openDataID":"3798500"},{"type":"station","subtype":"tram","lineNumber":"t1","icon":"tram-t1.png","center":{"lat":"48.93319180543302","lng":"2.294710757867617"},"title":"Le village","infos":"Face 92 r pierre timbaud 92036","openDataID":"3798501"},{"type":"station","subtype":"tram","lineNumber":"t1","icon":"tram-t1.png","center":{"lat":"48.93757349362246","lng":"2.361645504871931"},"title":"Basilique de saint denis","infos":"Rue edouard vaillant 93066","openDataID":"3798479"},{"type":"station","subtype":"tram","lineNumber":"t1","icon":"tram-t1.png","center":{"lat":"48.9317335355189","lng":"2.2884512588242454"},"title":"Le luth","infos":"28 av lucien lanternier 92036","openDataID":"3798502"},{"type":"station","subtype":"tram","lineNumber":"t1","icon":"tram-t1.png","center":{"lat":"48.93761835474619","lng":"2.3620002027025153"},"title":"Basilique de saint denis","infos":"3 rue edouard vaillant 93066","openDataID":"3798478"},{"type":"station","subtype":"tram","lineNumber":"t1","icon":"tram-t1.png","center":{"lat":"48.90664360045724","lng":"2.449919944861118"},"title":"Bobigny pablo picasso","infos":"Rue carnot 93008","openDataID":"3798449"},{"type":"station","subtype":"tram","lineNumber":"t1","icon":"tram-t1.png","center":{"lat":"48.931544850148796","lng":"2.288546915333536"},"title":"Le luth","infos":"Face 28 av lucien lanternier 92036","openDataID":"3798503"},{"type":"station","subtype":"tram","lineNumber":"t2","icon":"tram-t2.png","center":{"lat":"48.86798659535799","lng":"2.221471986471923"},"title":"Suresnes longchamp","infos":"15 pas la gare de longchamp 92073","openDataID":"4009372"},{"type":"station","subtype":"tram","lineNumber":"t2","icon":"tram-t2.png","center":{"lat":"48.82196200459944","lng":"2.2317148741993775"},"title":"Brimborion","infos":"Chemin des lacets 92072","openDataID":"4009398"},{"type":"station","subtype":"tram","lineNumber":"t2","icon":"tram-t2.png","center":{"lat":"48.867914550913504","lng":"2.221322293381193"},"title":"Suresnes longchamp","infos":"R cluseret 92073","openDataID":"4009371"},{"type":"station","subtype":"tram","lineNumber":"t2","icon":"tram-t2.png","center":{"lat":"48.83212737623452","lng":"2.2872652559205036"},"title":"Porte de versailles","infos":"1 av ernest renan 75115","openDataID":"4009397"},{"type":"station","subtype":"tram","lineNumber":"t2","icon":"tram-t2.png","center":{"lat":"48.87650203941345","lng":"2.22614008716102"},"title":"Belvedere","infos":"R roger salengro 92073","openDataID":"4009370"},{"type":"station","subtype":"tram","lineNumber":"t2","icon":"tram-t2.png","center":{"lat":"48.83220830468481","lng":"2.2873604738640747"},"title":"Porte de versailles","infos":"Face 3 av ernest renan 75115","openDataID":"4009396"},{"type":"station","subtype":"tram","lineNumber":"t2","icon":"tram-t2.png","center":{"lat":"48.83185497318259","lng":"2.2810440992866385"},"title":"Porte d'issy","infos":"2 r d'oradour sur glane 92040","openDataID":"4009395"},{"type":"station","subtype":"tram","lineNumber":"t2","icon":"tram-t2.png","center":{"lat":"48.85002041379945","lng":"2.2211443924745797"},"title":"Les milons","infos":"Bd senard 92064","openDataID":"4009376"},{"type":"station","subtype":"tram","lineNumber":"t2","icon":"tram-t2.png","center":{"lat":"48.83169317046552","lng":"2.280989820289652"},"title":"Porte d'issy","infos":"Face 2 r d'oradour sur glane 92040","openDataID":"4009394"},{"type":"station","subtype":"tram","lineNumber":"t2","icon":"tram-t2.png","center":{"lat":"48.83367716048171","lng":"2.2763724934782346"},"title":"Suzanne lenglen","infos":"Pl des martyrs de la resistance de la porte de sevres 75115","openDataID":"4009393"},{"type":"station","subtype":"tram","lineNumber":"t2","icon":"tram-t2.png","center":{"lat":"48.84996639599762","lng":"2.221049184774347"},"title":"Les milons","infos":"3 av andre chevrillon 92064","openDataID":"4009375"},{"type":"station","subtype":"tram","lineNumber":"t2","icon":"tram-t2.png","center":{"lat":"48.856688420034665","lng":"2.220434837741866"},"title":"Les coteaux","infos":"Bd senard 92064","openDataID":"4009374"},{"type":"station","subtype":"tram","lineNumber":"t2","icon":"tram-t2.png","center":{"lat":"48.833551236507404","lng":"2.2761820444621668"},"title":"Suzanne lenglen","infos":"Pl des martyrs de la resistance de la porte de sevres 75115","openDataID":"4009392"},{"type":"station","subtype":"tram","lineNumber":"t2","icon":"tram-t2.png","center":{"lat":"48.83494243023369","lng":"2.272613429064975"},"title":"Henri farman","infos":"Cw / 15 75115","openDataID":"4009391"},{"type":"station","subtype":"tram","lineNumber":"t2","icon":"tram-t2.png","center":{"lat":"48.85677813384896","lng":"2.220271193724712"},"title":"Les coteaux","infos":"3 av de suresnes 92064","openDataID":"4009373"},{"type":"station","subtype":"tram","lineNumber":"t2","icon":"tram-t2.png","center":{"lat":"48.82875968379714","lng":"2.225166902460968"},"title":"Musee de sevres","infos":"Quai de sevres 92072","openDataID":"4009379"},{"type":"station","subtype":"tram","lineNumber":"t2","icon":"tram-t2.png","center":{"lat":"48.843046818026124","lng":"2.2218816775770205"},"title":"Parc de st cloud","infos":"3 r dantan 92064","openDataID":"4009378"},{"type":"station","subtype":"tram","lineNumber":"t2","icon":"tram-t2.png","center":{"lat":"48.842893832085416","lng":"2.221677770048452"},"title":"Parc de st cloud","infos":"3 r dantan 92064","openDataID":"4009377"},{"type":"station","subtype":"tram","lineNumber":"t2","icon":"tram-t2.png","center":{"lat":"48.88312309074343","lng":"2.2332528586818414"},"title":"Puteaux","infos":"2 che de la station 92062","openDataID":"4009368"},{"type":"station","subtype":"tram","lineNumber":"t2","icon":"tram-t2.png","center":{"lat":"48.87656474687617","lng":"2.225921947019245"},"title":"Belvedere","infos":"18 r roger salengro 92073","openDataID":"4009369"},{"type":"station","subtype":"tram","lineNumber":"t2","icon":"tram-t2.png","center":{"lat":"48.89186143406793","lng":"2.2364791158536526"},"title":"La defense","infos":"Pl carpeaux 92062","openDataID":"4009366"},{"type":"station","subtype":"tram","lineNumber":"t2","icon":"tram-t2.png","center":{"lat":"48.88319478619906","lng":"2.23302105413707"},"title":"Puteaux","infos":"Sq du souvenir francais 92062","openDataID":"4009367"},{"type":"station","subtype":"tram","lineNumber":"t2","icon":"tram-t2.png","center":{"lat":"48.907725514741244","lng":"2.23864326147143"},"title":"Charlebourg","infos":"90 bd national 92035","openDataID":"4009360"},{"type":"station","subtype":"tram","lineNumber":"t2","icon":"tram-t2.png","center":{"lat":"48.90243265936361","lng":"2.239294045593773"},"title":"Les fauvelles","infos":"7 bd national 92035","openDataID":"4009361"},{"type":"station","subtype":"tram","lineNumber":"t2","icon":"tram-t2.png","center":{"lat":"48.89687952795178","lng":"2.2404086291518763"},"title":"Faubourg de l'arche","infos":"20 bd de la mission marchand 92026","openDataID":"4009364"},{"type":"station","subtype":"tram","lineNumber":"t2","icon":"tram-t2.png","center":{"lat":"48.891933227628904","lng":"2.2363563116843697"},"title":"La defense","infos":"Pl carpeaux 92062","openDataID":"4009365"},{"type":"station","subtype":"tram","lineNumber":"t2","icon":"tram-t2.png","center":{"lat":"48.90245089074918","lng":"2.239607550870101"},"title":"Les fauvelles","infos":"Face 7 bd national 92035","openDataID":"4009362"},{"type":"station","subtype":"tram","lineNumber":"t2","icon":"tram-t2.png","center":{"lat":"48.89680729800427","lng":"2.239999843794393"},"title":"Faubourg de l'arche","infos":"Face 20 bd de la mission marchand 92026","openDataID":"4009363"},{"type":"station","subtype":"tram","lineNumber":"t2","icon":"tram-t2.png","center":{"lat":"48.82212346845211","lng":"2.231360658178168"},"title":"Brimborion","infos":"Che des lacets 92048","openDataID":"4009381"},{"type":"station","subtype":"tram","lineNumber":"t2","icon":"tram-t2.png","center":{"lat":"48.82860707343412","lng":"2.2253578108257597"},"title":"Musee de sevres","infos":"Quai de sevres 92072","openDataID":"4009380"},{"type":"station","subtype":"tram","lineNumber":"t2","icon":"tram-t2.png","center":{"lat":"48.81927287064518","lng":"2.2401451280367315"},"title":"Meudon sur seine","infos":"Sen deslandes 92048","openDataID":"4009383"},{"type":"station","subtype":"tram","lineNumber":"t2","icon":"tram-t2.png","center":{"lat":"48.81918273787022","lng":"2.239832259955797"},"title":"Meudon sur seine","infos":"Sen deslandes 92048","openDataID":"4009382"},{"type":"station","subtype":"tram","lineNumber":"t2","icon":"tram-t2.png","center":{"lat":"48.82155533833698","lng":"2.2513018060643315"},"title":"Les moulineaux","infos":"R jean jacques rousseau 92040","openDataID":"4009385"},{"type":"station","subtype":"tram","lineNumber":"t2","icon":"tram-t2.png","center":{"lat":"48.82147452777927","lng":"2.251410827016059"},"title":"Les moulineaux","infos":"R jean jacques rousseau 92040","openDataID":"4009384"},{"type":"station","subtype":"tram","lineNumber":"t2","icon":"tram-t2.png","center":{"lat":"48.823969491438305","lng":"2.2592197266225065"},"title":"Jacques henri lartigue","infos":"14 r jacques henri lartigue 92040","openDataID":"4009387"},{"type":"station","subtype":"tram","lineNumber":"t2","icon":"tram-t2.png","center":{"lat":"48.823780687960216","lng":"2.2591247300436366"},"title":"Jacques henri lartigue","infos":"Face 14 r jacques henri lartigue 92040","openDataID":"4009386"},{"type":"station","subtype":"tram","lineNumber":"t2","icon":"tram-t2.png","center":{"lat":"48.82957110434357","lng":"2.2628187515649514"},"title":"Issy val de seine","infos":"Mail felix amiot 92040","openDataID":"4009389"},{"type":"station","subtype":"tram","lineNumber":"t2","icon":"tram-t2.png","center":{"lat":"48.82910364550732","lng":"2.2626560674016605"},"title":"Issy val de seine","infos":"Mail felix amiot 92040","openDataID":"4009388"},{"type":"station","subtype":"tram","lineNumber":"t2","icon":"tram-t2.png","center":{"lat":"48.91364952675164","lng":"2.2300282302750474"},"title":"Victor basch","infos":"117 bd charles de gaulle 92025","openDataID":"4009355"},{"type":"station","subtype":"tram","lineNumber":"t2","icon":"tram-t2.png","center":{"lat":"48.913766565994386","lng":"2.230259785448907"},"title":"Victor basch","infos":"Face 117 bd charles de gaulle 92025","openDataID":"4009356"},{"type":"station","subtype":"tram","lineNumber":"t2","icon":"tram-t2.png","center":{"lat":"48.910687372418224","lng":"2.234070123145412"},"title":"Jacqueline auriol","infos":"Face 68 bd charles de gaulle 92025","openDataID":"4009357"},{"type":"station","subtype":"tram","lineNumber":"t2","icon":"tram-t2.png","center":{"lat":"48.91081341466561","lng":"2.2343289250336604"},"title":"Jacqueline auriol","infos":"68 bd charles de gaulle 92025","openDataID":"4009358"},{"type":"station","subtype":"tram","lineNumber":"t2","icon":"tram-t2.png","center":{"lat":"48.907437578853504","lng":"2.238221171763594"},"title":"Charlebourg","infos":"89 bd national 92035","openDataID":"4009359"},{"type":"station","subtype":"tram","lineNumber":"t2","icon":"tram-t2.png","center":{"lat":"48.92332538563844","lng":"2.217311537476802"},"title":"Pont de bezons","infos":"Pl lenine 95063","openDataID":"4009351"},{"type":"station","subtype":"tram","lineNumber":"t2","icon":"tram-t2.png","center":{"lat":"48.92337067632719","lng":"2.217666012118316"},"title":"Pont de bezons","infos":"R julius et ethel rosenberg 95063","openDataID":"4009352"},{"type":"station","subtype":"tram","lineNumber":"t2","icon":"tram-t2.png","center":{"lat":"48.917580644023914","lng":"2.224402000398648"},"title":"Parc pierre lagravere","infos":"195 bd charles de gaulle 92025","openDataID":"4009353"},{"type":"station","subtype":"tram","lineNumber":"t2","icon":"tram-t2.png","center":{"lat":"48.917697693809146","lng":"2.2246335604322915"},"title":"Parc pierre lagravere","infos":"Face 195 bd charles de gaulle 92025","openDataID":"4009354"},{"type":"station","subtype":"tram","lineNumber":"t2","icon":"tram-t2.png","center":{"lat":"48.834870507352896","lng":"2.2725726754613715"},"title":"Henri farman","infos":"0 cw / 15 75115","openDataID":"4009390"},{"type":"station","subtype":"tram","lineNumber":"t3a","icon":"tram-t3a.png","center":{"lat":"48.83475004437327","lng":"2.283341791320841"},"title":"Desnouettes","infos":"29 boulevard victor 75115","openDataID":"3813505"},{"type":"station","subtype":"tram","lineNumber":"t3a","icon":"tram-t3a.png","center":{"lat":"48.83402248922237","lng":"2.2843227679990963"},"title":"Desnouettes","infos":"19 boulevard victor 75115","openDataID":"3813504"},{"type":"station","subtype":"tram","lineNumber":"t3a","icon":"tram-t3a.png","center":{"lat":"48.832864761854","lng":"2.288231130535906"},"title":"Porte de versailles parc des expositions","infos":"Face 75 boulevard lefebvre 75115","openDataID":"3813507"},{"type":"station","subtype":"tram","lineNumber":"t3a","icon":"tram-t3a.png","center":{"lat":"48.83261302467199","lng":"2.2880271612581975"},"title":"Porte de versailles parc des expositions","infos":"75 boulevard victor 75115","openDataID":"3813506"},{"type":"station","subtype":"tram","lineNumber":"t3a","icon":"tram-t3a.png","center":{"lat":"48.8379613500494","lng":"2.270962227260772"},"title":"Pont garigliano hopital europeen george pompidou","infos":"Bd du general martial valin 75115","openDataID":"3813501"},{"type":"station","subtype":"tram","lineNumber":"t3a","icon":"tram-t3a.png","center":{"lat":"48.83648174358046","lng":"2.2772677810199293"},"title":"Balard","infos":"12 boulevard victor 75115","openDataID":"3813503"},{"type":"station","subtype":"tram","lineNumber":"t3a","icon":"tram-t3a.png","center":{"lat":"48.835718624568095","lng":"2.278929647248125"},"title":"Balard","infos":"1 ter bd victor 75115","openDataID":"3813502"},{"type":"station","subtype":"tram","lineNumber":"t3a","icon":"tram-t3a.png","center":{"lat":"48.82946154305645","lng":"2.296415746251944"},"title":"Georges brassens","infos":"87 boulevard lefebvre 75115","openDataID":"3813508"},{"type":"station","subtype":"tram","lineNumber":"t3a","icon":"tram-t3a.png","center":{"lat":"48.83020701227299","lng":"2.2949721630550806"},"title":"Georges brassens","infos":"58 boulevard lefebvre 75115","openDataID":"3813509"},{"type":"station","subtype":"tram","lineNumber":"t3a","icon":"tram-t3a.png","center":{"lat":"48.825727285471544","lng":"2.313338399586871"},"title":"Didot","infos":"83 boulevard brune 75114","openDataID":"3813514"},{"type":"station","subtype":"tram","lineNumber":"t3a","icon":"tram-t3a.png","center":{"lat":"48.827648999329945","lng":"2.3062181750371833"},"title":"Porte de vanves","infos":"Face 17 boulevard brune 75114","openDataID":"3813513"},{"type":"station","subtype":"tram","lineNumber":"t3a","icon":"tram-t3a.png","center":{"lat":"48.827271571354885","lng":"2.306422586810065"},"title":"Porte de vanves","infos":"17 boulevard brune 75114","openDataID":"3813512"},{"type":"station","subtype":"tram","lineNumber":"t3a","icon":"tram-t3a.png","center":{"lat":"48.828806922967175","lng":"2.3009765518628895"},"title":"Brancion","infos":"Face 167 boulevard lefebvre 75115","openDataID":"3813511"},{"type":"station","subtype":"tram","lineNumber":"t3a","icon":"tram-t3a.png","center":{"lat":"48.82269139587665","lng":"2.326787666071051"},"title":"Porte d'orleans","infos":"Face 201 boulevard brune 75114","openDataID":"3813518"},{"type":"station","subtype":"tram","lineNumber":"t3a","icon":"tram-t3a.png","center":{"lat":"48.824847497722445","lng":"2.319001300339279"},"title":"Jean moulin","infos":"Face 139 boulevard brune 75114","openDataID":"3813517"},{"type":"station","subtype":"tram","lineNumber":"t3a","icon":"tram-t3a.png","center":{"lat":"48.82456882109448","lng":"2.3186202708997943"},"title":"Jean moulin","infos":"139 boulevard brune 75114","openDataID":"3813516"},{"type":"station","subtype":"tram","lineNumber":"t3a","icon":"tram-t3a.png","center":{"lat":"48.82608682166155","lng":"2.3134879669297725"},"title":"Didot","infos":"Face 83 boulevard brune 75114","openDataID":"3813515"},{"type":"station","subtype":"tram","lineNumber":"t3a","icon":"tram-t3a.png","center":{"lat":"48.82854619829102","lng":"2.300704479347048"},"title":"Brancion","infos":"167 boulevard lefebvre 75115","openDataID":"3813510"},{"type":"station","subtype":"tram","lineNumber":"t3a","icon":"tram-t3a.png","center":{"lat":"48.84361961611373","lng":"2.4101993140051765"},"title":"Alexandra david neel","infos":"Face 111 bd soult 75112","openDataID":"3813546"},{"type":"station","subtype":"tram","lineNumber":"t3a","icon":"tram-t3a.png","center":{"lat":"48.84352994061545","lng":"2.4098723877108132"},"title":"Alexandra david neel","infos":"Face 70 bd soult 75112","openDataID":"3813547"},{"type":"station","subtype":"tram","lineNumber":"t3a","icon":"tram-t3a.png","center":{"lat":"48.83989049153473","lng":"2.409036734617636"},"title":"Montempoivre","infos":"Face 61 bd soult 75112","openDataID":"3813544"},{"type":"station","subtype":"tram","lineNumber":"t3a","icon":"tram-t3a.png","center":{"lat":"48.83989967563712","lng":"2.4087099699960133"},"title":"Montempoivre","infos":"61 bd soult 75112","openDataID":"3813545"},{"type":"station","subtype":"tram","lineNumber":"t3a","icon":"tram-t3a.png","center":{"lat":"48.84694530296027","lng":"2.4097001404756484"},"title":"Porte de vincennes","infos":"112 crs de vincennes 75112","openDataID":"3813548"},{"type":"station","subtype":"tram","lineNumber":"t3a","icon":"tram-t3a.png","center":{"lat":"48.84690945225917","lng":"2.4095366796625317"},"title":"Porte de vincennes","infos":"Crs de vincennes 75112","openDataID":"3813549"},{"type":"station","subtype":"tram","lineNumber":"t3a","icon":"tram-t3a.png","center":{"lat":"48.823041928362144","lng":"2.326937319620548"},"title":"Porte d'orleans","infos":"117 bd brune 75114","openDataID":"3813519"},{"type":"station","subtype":"tram","lineNumber":"t3a","icon":"tram-t3a.png","center":{"lat":"48.836053743044054","lng":"2.4074521197954795"},"title":"Porte doree","infos":"2 bd soult 75112","openDataID":"3813542"},{"type":"station","subtype":"tram","lineNumber":"t3a","icon":"tram-t3a.png","center":{"lat":"48.835173857132695","lng":"2.405912492947947"},"title":"Porte doree","infos":"117 bd poniatowski 75112","openDataID":"3813543"},{"type":"station","subtype":"tram","lineNumber":"t3a","icon":"tram-t3a.png","center":{"lat":"48.8318435059448","lng":"2.3984886704251625"},"title":"Porte de charenton","infos":"Face 15 bd poniatowski 75112","openDataID":"3813540"},{"type":"station","subtype":"tram","lineNumber":"t3a","icon":"tram-t3a.png","center":{"lat":"48.832077386194484","lng":"2.398094150060432"},"title":"Porte de charenton","infos":"15 bd poniatowski 75112","openDataID":"3813541"},{"type":"station","subtype":"tram","lineNumber":"t3a","icon":"tram-t3a.png","center":{"lat":"48.82062468519013","lng":"2.338084930375419"},"title":"Cite universitaire","infos":"Face 15 bis bd jourdan 75114","openDataID":"3813523"},{"type":"station","subtype":"tram","lineNumber":"t3a","icon":"tram-t3a.png","center":{"lat":"48.82004946029484","lng":"2.3391601513527824"},"title":"Cite universitaire","infos":"Face 24 boulevard jourdan 75114","openDataID":"3813522"},{"type":"station","subtype":"tram","lineNumber":"t3a","icon":"tram-t3a.png","center":{"lat":"48.819707651417815","lng":"2.3455842566908545"},"title":"Stade charlety porte de gentilly","infos":"Face 97 boulevard kellermann 75113","openDataID":"3813525"},{"type":"station","subtype":"tram","lineNumber":"t3a","icon":"tram-t3a.png","center":{"lat":"48.81949193115387","lng":"2.3458019878670338"},"title":"Stade charlety porte de gentilly","infos":"97 boulevard kellermann 75113","openDataID":"3813524"},{"type":"station","subtype":"tram","lineNumber":"t3a","icon":"tram-t3a.png","center":{"lat":"48.820911616638455","lng":"2.3499534959271067"},"title":"Poterne des peupliers","infos":"Face 53 boulevard kellermann 75113","openDataID":"3813527"},{"type":"station","subtype":"tram","lineNumber":"t3a","icon":"tram-t3a.png","center":{"lat":"48.82094735715549","lng":"2.351790955188557"},"title":"Poterne des peupliers","infos":"63 65 boulevard kellermann 75113","openDataID":"3813526"},{"type":"station","subtype":"tram","lineNumber":"t3a","icon":"tram-t3a.png","center":{"lat":"48.81928360989372","lng":"2.358582033071079"},"title":"Porte d'italie","infos":"164 boulevard massena 75113","openDataID":"3813529"},{"type":"station","subtype":"tram","lineNumber":"t3a","icon":"tram-t3a.png","center":{"lat":"48.818905790809154","lng":"2.3603784254692677"},"title":"Porte d'italie","infos":"Face 164 boulevard massena 75113","openDataID":"3813528"},{"type":"station","subtype":"tram","lineNumber":"t3a","icon":"tram-t3a.png","center":{"lat":"48.821658208843665","lng":"2.3333619539764574"},"title":"Montsouris","infos":"38 bd jourdan 75114","openDataID":"3813521"},{"type":"station","subtype":"tram","lineNumber":"t3a","icon":"tram-t3a.png","center":{"lat":"48.821217828313955","lng":"2.3338928087848245"},"title":"Montsouris","infos":"Face 38 boulevard jourdan 75114","openDataID":"3813520"},{"type":"station","subtype":"tram","lineNumber":"t3a","icon":"tram-t3a.png","center":{"lat":"48.8218964457047","lng":"2.3699618979128303"},"title":"Porte d'ivry","infos":"72 boulevard massena 75113","openDataID":"3813533"},{"type":"station","subtype":"tram","lineNumber":"t3a","icon":"tram-t3a.png","center":{"lat":"48.824132010530164","lng":"2.37766746177698"},"title":"Maryse bastie","infos":"Bd du general jean simon 75113","openDataID":"3813534"},{"type":"station","subtype":"tram","lineNumber":"t3a","icon":"tram-t3a.png","center":{"lat":"48.82437487935594","lng":"2.3770687385249265"},"title":"Maryse bastie","infos":"7 9 bd du general jean simon 75113","openDataID":"3813535"},{"type":"station","subtype":"tram","lineNumber":"t3a","icon":"tram-t3a.png","center":{"lat":"48.82538909430547","lng":"2.3810305828136284"},"title":"Avenue de france","infos":"Bd du general jean simon 75113","openDataID":"3813536"},{"type":"station","subtype":"tram","lineNumber":"t3a","icon":"tram-t3a.png","center":{"lat":"48.82557787011093","lng":"2.38093545833066"},"title":"Avenue de france","infos":"Bd du general jean simon 75113","openDataID":"3813537"},{"type":"station","subtype":"tram","lineNumber":"t3a","icon":"tram-t3a.png","center":{"lat":"48.83028208068306","lng":"2.3935860770449033"},"title":"Baron le roy","infos":"30 bd poniatowski 75112","openDataID":"3813538"},{"type":"station","subtype":"tram","lineNumber":"t3a","icon":"tram-t3a.png","center":{"lat":"48.83025563448411","lng":"2.392483380001145"},"title":"Baron le roy","infos":"Face 30 bd poniatowski 75112","openDataID":"3813539"},{"type":"station","subtype":"tram","lineNumber":"t3a","icon":"tram-t3a.png","center":{"lat":"48.81971390717928","lng":"2.364080820209414"},"title":"Porte de choisy","infos":"Face 128 boulevard massena 75113","openDataID":"3813530"},{"type":"station","subtype":"tram","lineNumber":"t3a","icon":"tram-t3a.png","center":{"lat":"48.81992070046206","lng":"2.3637406652017106"},"title":"Porte de choisy","infos":"Face 128 boulevard massena 75113","openDataID":"3813531"},{"type":"station","subtype":"tram","lineNumber":"t3a","icon":"tram-t3a.png","center":{"lat":"48.82167167470405","lng":"2.3702475859019176"},"title":"Porte d'ivry","infos":"Face 72 bd massena 75113","openDataID":"3813532"},{"type":"station","subtype":"tram","lineNumber":"t3b","icon":"tram-t3b.png","center":{"lat":"48.89839997036879","lng":"2.3578103614139057"},"title":"Porte de la chapelle","infos":"31 bd ney 75118","openDataID":"3813341"},{"type":"station","subtype":"tram","lineNumber":"t3b","icon":"tram-t3b.png","center":{"lat":"48.898597684757576","lng":"2.3578240709847353"},"title":"Porte de la chapelle","infos":"31 bd ney 75118","openDataID":"3813340"},{"type":"station","subtype":"tram","lineNumber":"t3b","icon":"tram-t3b.png","center":{"lat":"48.894503935889276","lng":"2.3977721634614846"},"title":"Delphine seyrig","infos":"7 15 r delphine seyrig 93055","openDataID":"3813328"},{"type":"station","subtype":"tram","lineNumber":"t3b","icon":"tram-t3b.png","center":{"lat":"48.89744790977127","lng":"2.3865301587901095"},"title":"Porte de la villette cite des sciences et de l'industrie","infos":"Face 81 bd macdonald 75119","openDataID":"3887739"},{"type":"station","subtype":"tram","lineNumber":"t3b","icon":"tram-t3b.png","center":{"lat":"48.88874424503188","lng":"2.3955848701158775"},"title":"Porte de pantin parc de la villette","infos":"179 bis bd serurier 75119","openDataID":"3887738"},{"type":"station","subtype":"tram","lineNumber":"t3b","icon":"tram-t3b.png","center":{"lat":"48.894468063305716","lng":"2.3976221909485944"},"title":"Delphine seyrig","infos":"Face 7 15 r delphine seyrig 93055","openDataID":"3813329"},{"type":"station","subtype":"tram","lineNumber":"t3b","icon":"tram-t3b.png","center":{"lat":"48.876821182828934","lng":"2.406730671754107"},"title":"Porte des lilas","infos":"166 168 bd mortier 75120","openDataID":"3813345"},{"type":"station","subtype":"tram","lineNumber":"t3b","icon":"tram-t3b.png","center":{"lat":"48.88501408966721","lng":"2.3965209747909855"},"title":"Butte du chapeau rouge","infos":"Bd d'indochine 75119","openDataID":"3813326"},{"type":"station","subtype":"tram","lineNumber":"t3b","icon":"tram-t3b.png","center":{"lat":"48.88889689362215","lng":"2.3958576137354113"},"title":"Porte de pantin parc de la villette","infos":"Face 179 bis bd serurier 75119","openDataID":"3813327"},{"type":"station","subtype":"tram","lineNumber":"t3b","icon":"tram-t3b.png","center":{"lat":"48.879268920288126","lng":"2.4010110065026677"},"title":"Hopital robert debre","infos":"Face 1 bd d'algerie 75119","openDataID":"3813324"},{"type":"station","subtype":"tram","lineNumber":"t3b","icon":"tram-t3b.png","center":{"lat":"48.885166743390215","lng":"2.396780073937169"},"title":"Butte du chapeau rouge","infos":"13 bd d'indochine 75119","openDataID":"3813325"},{"type":"station","subtype":"tram","lineNumber":"t3b","icon":"tram-t3b.png","center":{"lat":"48.879493514270365","lng":"2.4011747961654972"},"title":"Hopital robert debre","infos":"1 bd d'algerie 75119","openDataID":"3813323"},{"type":"station","subtype":"tram","lineNumber":"t3b","icon":"tram-t3b.png","center":{"lat":"48.87200276506684","lng":"2.408795086135347"},"title":"Adrienne bolland","infos":"108 bd mortier 75120","openDataID":"3813320"},{"type":"station","subtype":"tram","lineNumber":"t3b","icon":"tram-t3b.png","center":{"lat":"48.87233553231549","lng":"2.408400442346118"},"title":"Adrienne bolland","infos":"109 bd mortier 75120","openDataID":"3813321"},{"type":"station","subtype":"tram","lineNumber":"t3b","icon":"tram-t3b.png","center":{"lat":"48.863545777166586","lng":"2.4086063337580583"},"title":"Porte de bagnolet","infos":"221 211 bd davout 75120","openDataID":"3813317"},{"type":"station","subtype":"tram","lineNumber":"t3b","icon":"tram-t3b.png","center":{"lat":"48.867508893541654","lng":"2.409129460189989"},"title":"Severine","infos":"46 bd mortier 75120","openDataID":"3813318"},{"type":"station","subtype":"tram","lineNumber":"t3b","icon":"tram-t3b.png","center":{"lat":"48.86734733439899","lng":"2.408775040084198"},"title":"Severine","infos":"51 bd mortier 75120","openDataID":"3813319"},{"type":"station","subtype":"tram","lineNumber":"t3b","icon":"tram-t3b.png","center":{"lat":"48.85318212034523","lng":"2.4105123851418995"},"title":"Porte de montreuil","infos":"65 bd davout 75120","openDataID":"3813313"},{"type":"station","subtype":"tram","lineNumber":"t3b","icon":"tram-t3b.png","center":{"lat":"48.89897817753844","lng":"2.380179455559747"},"title":"Canal saint denis","infos":"Face 137 bd macdonald 75119","openDataID":"3813332"},{"type":"station","subtype":"tram","lineNumber":"t3b","icon":"tram-t3b.png","center":{"lat":"48.89769947037563","lng":"2.386721230669195"},"title":"Porte de la villette cite des sciences et de l'industrie","infos":"Face 81 bd macdonald 75119","openDataID":"3813331"},{"type":"station","subtype":"tram","lineNumber":"t3b","icon":"tram-t3b.png","center":{"lat":"48.85884463692932","lng":"2.409812107706981"},"title":"Marie de miribel","infos":"108 112 bd davout 75120","openDataID":"3813314"},{"type":"station","subtype":"tram","lineNumber":"t3b","icon":"tram-t3b.png","center":{"lat":"48.85879989853992","lng":"2.4094851486951954"},"title":"Marie de miribel","infos":"139 145 bd davout 75120","openDataID":"3813315"},{"type":"station","subtype":"tram","lineNumber":"t3b","icon":"tram-t3b.png","center":{"lat":"48.897515796383985","lng":"2.3724904415209136"},"title":"Rosa parks","infos":"0 nr 75119","openDataID":"3813334"},{"type":"station","subtype":"tram","lineNumber":"t3b","icon":"tram-t3b.png","center":{"lat":"48.86357254303908","lng":"2.408933297088454"},"title":"Porte de bagnolet","infos":"162 168 bd davout 75120","openDataID":"3813316"},{"type":"station","subtype":"tram","lineNumber":"t3b","icon":"tram-t3b.png","center":{"lat":"48.8987623733382","lng":"2.380492794030591"},"title":"Canal saint denis","infos":"137 bd macdonald 75119","openDataID":"3813333"},{"type":"station","subtype":"tram","lineNumber":"t3b","icon":"tram-t3b.png","center":{"lat":"48.898775032382886","lng":"2.368783615022626"},"title":"Porte d'aubervilliers","infos":"Face 1 3 bd ney 75118","openDataID":"3813336"},{"type":"station","subtype":"tram","lineNumber":"t3b","icon":"tram-t3b.png","center":{"lat":"48.84722392369698","lng":"2.4096869119519257"},"title":"Porte de vincennes","infos":"Face 103 crs de vincennes 75120","openDataID":"3813310"},{"type":"station","subtype":"tram","lineNumber":"t3b","icon":"tram-t3b.png","center":{"lat":"48.89733605374564","lng":"2.3724903193027815"},"title":"Rosa parks","infos":"0 nr 75119","openDataID":"3813335"},{"type":"station","subtype":"tram","lineNumber":"t3b","icon":"tram-t3b.png","center":{"lat":"48.84730491045116","lng":"2.4095236130471465"},"title":"Porte de vincennes","infos":"103 crs de vincennes 75120","openDataID":"3813311"},{"type":"station","subtype":"tram","lineNumber":"t3b","icon":"tram-t3b.png","center":{"lat":"48.89866849236912","lng":"2.3633856115291576"},"title":"Colette besson","infos":"Face 17 19 bd ney 75118","openDataID":"3813338"},{"type":"station","subtype":"tram","lineNumber":"t3b","icon":"tram-t3b.png","center":{"lat":"48.85318193567518","lng":"2.410812007479081"},"title":"Porte de montreuil","infos":"68 70 bd davout 75120","openDataID":"3813312"},{"type":"station","subtype":"tram","lineNumber":"t3b","icon":"tram-t3b.png","center":{"lat":"48.8985323439321","lng":"2.368919778586098"},"title":"Porte d'aubervilliers","infos":"1 3 bd ney 75118","openDataID":"3813337"},{"type":"station","subtype":"tram","lineNumber":"t3b","icon":"tram-t3b.png","center":{"lat":"48.898426076934854","lng":"2.3622813706471204"},"title":"Colette besson","infos":"17 19 bd ney 75118","openDataID":"3813339"},{"type":"station","subtype":"tram","lineNumber":"t3b","icon":"tram-t3b.png","center":{"lat":"48.89729218057503","lng":"2.3932091019274817"},"title":"Ella fitzgerald grands moulins de pantin","infos":"16 18 r de la cloture 75119","openDataID":"3887741"},{"type":"station","subtype":"tram","lineNumber":"t3b","icon":"tram-t3b.png","center":{"lat":"48.87691988372172","lng":"2.407003312913803"},"title":"Porte des lilas","infos":"164 166 bd mortier 75120","openDataID":"3887742"},{"type":"station","subtype":"tram","lineNumber":"t3b","icon":"tram-t3b.png","center":{"lat":"48.89739105181119","lng":"2.3931819470359255"},"title":"Ella fitzgerald grands moulins de pantin","infos":"Face 16 18 r de la cloture 75119","openDataID":"3887740"},{"type":"station","subtype":"tram","lineNumber":"t5","icon":"tram-t5.png","center":{"lat":"48.9792035251229","lng":"2.3802187110346593"},"title":"Paul valery","infos":"44 avenue paul valery 95585","openDataID":"4146218"},{"type":"station","subtype":"tram","lineNumber":"t5","icon":"tram-t5.png","center":{"lat":"48.951665455429655","lng":"2.3579952545507568"},"title":"Petit pierrefitte","infos":"178 avenue elisee reclus 93059","openDataID":"4146236"},{"type":"station","subtype":"tram","lineNumber":"t5","icon":"tram-t5.png","center":{"lat":"48.948214677834336","lng":"2.357229796608362"},"title":"Guynemer (stade auguste delaune)","infos":"32 avenue roger semat 93066","openDataID":"4146237"},{"type":"station","subtype":"tram","lineNumber":"t5","icon":"tram-t5.png","center":{"lat":"48.97677817874377","lng":"2.3772952252185626"},"title":"Les flanades","infos":"10 avenue auguste perret 95585","openDataID":"4146219"},{"type":"station","subtype":"tram","lineNumber":"t5","icon":"tram-t5.png","center":{"lat":"48.9481427239018","lng":"2.3575845176403534"},"title":"Guynemer (stade auguste delaune)","infos":"32 avenue roger semat 93066","openDataID":"4146238"},{"type":"station","subtype":"tram","lineNumber":"t5","icon":"tram-t5.png","center":{"lat":"48.944745840677314","lng":"2.3569010192632076"},"title":"Roger semat","infos":"6 avenue roger semat 93066","openDataID":"4146239"},{"type":"station","subtype":"tram","lineNumber":"t5","icon":"tram-t5.png","center":{"lat":"48.9769523722321","lng":"2.391343045670867"},"title":"Garges sarcelles rer","infos":"0 avenue du general de gaulle 95585","openDataID":"4146214"},{"type":"station","subtype":"tram","lineNumber":"t5","icon":"tram-t5.png","center":{"lat":"48.978653755115054","lng":"2.384436794369383"},"title":"Locheres","infos":"18 avenue paul valery 95585","openDataID":"4146215"},{"type":"station","subtype":"tram","lineNumber":"t5","icon":"tram-t5.png","center":{"lat":"48.97850992217312","lng":"2.3845595329534186"},"title":"Locheres","infos":"18 avenue paul valery 95585","openDataID":"4146216"},{"type":"station","subtype":"tram","lineNumber":"t5","icon":"tram-t5.png","center":{"lat":"48.979338347397245","lng":"2.3801505609318845"},"title":"Paul valery","infos":"44 avenue paul valery 95585","openDataID":"4146217"},{"type":"station","subtype":"tram","lineNumber":"t5","icon":"tram-t5.png","center":{"lat":"48.95892661445699","lng":"2.3585303983960872"},"title":"Suzanne valadon","infos":"62 av lenine 93059","openDataID":"4146231"},{"type":"station","subtype":"tram","lineNumber":"t5","icon":"tram-t5.png","center":{"lat":"48.96349146022825","lng":"2.3605385650162742"},"title":"Mairie de pierrefitte","infos":"Boulevard jean mermoz 93059","openDataID":"4146230"},{"type":"station","subtype":"tram","lineNumber":"t5","icon":"tram-t5.png","center":{"lat":"48.954828771784285","lng":"2.358037459933026"},"title":"Joncherolles","infos":"144 avenue lenine 93059","openDataID":"4146233"},{"type":"station","subtype":"tram","lineNumber":"t5","icon":"tram-t5.png","center":{"lat":"48.95929499672297","lng":"2.358926316438496"},"title":"Suzanne valadon","infos":"1 rue jules valles 93059","openDataID":"4146232"},{"type":"station","subtype":"tram","lineNumber":"t5","icon":"tram-t5.png","center":{"lat":"48.95232153573259","lng":"2.357708966424503"},"title":"Petit pierrefitte","infos":"178 avenue elisee reclus 93059","openDataID":"4146235"},{"type":"station","subtype":"tram","lineNumber":"t5","icon":"tram-t5.png","center":{"lat":"48.95568243136831","lng":"2.3584744801995736"},"title":"Joncherolles","infos":"0 avenue lenine 93059","openDataID":"4146234"},{"type":"station","subtype":"tram","lineNumber":"t5","icon":"tram-t5.png","center":{"lat":"48.96352753276374","lng":"2.3598834656941707"},"title":"Mairie de pierrefitte","infos":"Boulevard jean mermoz 93059","openDataID":"4146229"},{"type":"station","subtype":"tram","lineNumber":"t5","icon":"tram-t5.png","center":{"lat":"48.965405151761665","lng":"2.3627914674676664"},"title":"Alcide d'orbigny","infos":"Boulevard jean mermoz 93059","openDataID":"4146227"},{"type":"station","subtype":"tram","lineNumber":"t5","icon":"tram-t5.png","center":{"lat":"48.96589019371525","lng":"2.363869967071234"},"title":"Alcide d'orbigny","infos":"Boulevard jean mermoz 93059","openDataID":"4146228"},{"type":"station","subtype":"tram","lineNumber":"t5","icon":"tram-t5.png","center":{"lat":"48.970859338551605","lng":"2.365797197627149"},"title":"Jacques prevert","infos":"Boulevard jean mermoz 93059","openDataID":"4146225"},{"type":"station","subtype":"tram","lineNumber":"t5","icon":"tram-t5.png","center":{"lat":"48.97092215262424","lng":"2.366179437634492"},"title":"Jacques prevert","infos":"Boulevard jean mermoz 93059","openDataID":"4146226"},{"type":"station","subtype":"tram","lineNumber":"t5","icon":"tram-t5.png","center":{"lat":"48.97379783150102","lng":"2.3662766018518244"},"title":"Butte pinson (parc regional)","infos":"Boulevard jean mermoz 93059","openDataID":"4146224"},{"type":"station","subtype":"tram","lineNumber":"t5","icon":"tram-t5.png","center":{"lat":"48.94244522086333","lng":"2.356913788932754"},"title":"Baudelaire","infos":"134 rue gabriel peri 93066","openDataID":"4146242"},{"type":"station","subtype":"tram","lineNumber":"t5","icon":"tram-t5.png","center":{"lat":"48.97360921588362","lng":"2.3658533181493318"},"title":"Butte pinson (parc regional)","infos":"Boulevard jean mermoz 93059","openDataID":"4146223"},{"type":"station","subtype":"tram","lineNumber":"t5","icon":"tram-t5.png","center":{"lat":"48.94213972325765","lng":"2.3565862504717936"},"title":"Baudelaire","infos":"134 rue gabriel peri 93066","openDataID":"4146241"},{"type":"station","subtype":"tram","lineNumber":"t5","icon":"tram-t5.png","center":{"lat":"48.97737289692344","lng":"2.3721762252455303"},"title":"Les cholettes","infos":"Avenue du 8 mai 1945 95585","openDataID":"4146222"},{"type":"station","subtype":"tram","lineNumber":"t5","icon":"tram-t5.png","center":{"lat":"48.944970460325266","lng":"2.35720125816893"},"title":"Roger semat","infos":"6 avenue roger semat 93066","openDataID":"4146240"},{"type":"station","subtype":"tram","lineNumber":"t5","icon":"tram-t5.png","center":{"lat":"48.977696637028245","lng":"2.3713982809506327"},"title":"Les cholettes","infos":"24 avenue du 8 mai 1945 95585","openDataID":"4146221"},{"type":"station","subtype":"tram","lineNumber":"t5","icon":"tram-t5.png","center":{"lat":"48.97652646848082","lng":"2.377554412167228"},"title":"Les flanades","infos":"10 avenue auguste perret 95585","openDataID":"4146220"},{"type":"station","subtype":"tram","lineNumber":"t5","icon":"tram-t5.png","center":{"lat":"48.939183115531854","lng":"2.3562577428137623"},"title":"Marche de saint denis","infos":"Rue gabriel peri 93066","openDataID":"4146244"},{"type":"station","subtype":"tram","lineNumber":"t7","icon":"tram-t7.png","center":{"lat":"48.787536899371986","lng":"2.3667301884492553"},"title":"Villejuif louis aragon","infos":"19 avenue de stalingrad 94076","openDataID":"4284930"},{"type":"station","subtype":"tram","lineNumber":"t7","icon":"tram-t7.png","center":{"lat":"48.75289801746422","lng":"2.362020982728848"},"title":"Place de la logistique (plateforme sogaris)","infos":"Nr 94065","openDataID":"4284914"},{"type":"station","subtype":"tram","lineNumber":"t7","icon":"tram-t7.png","center":{"lat":"48.75297897855814","lng":"2.3616947906418555"},"title":"Place de la logistique (plateforme sogaris)","infos":"Nr 94065","openDataID":"4284915"},{"type":"station","subtype":"tram","lineNumber":"t7","icon":"tram-t7.png","center":{"lat":"48.75609618186749","lng":"2.3688601683981094"},"title":"La belle epine","infos":"Rue laterale 94065","openDataID":"4284916"},{"type":"station","subtype":"tram","lineNumber":"t7","icon":"tram-t7.png","center":{"lat":"48.755862583370366","lng":"2.368506590138602"},"title":"La belle epine","infos":"Rue laterale 94065","openDataID":"4284917"},{"type":"station","subtype":"tram","lineNumber":"t7","icon":"tram-t7.png","center":{"lat":"48.75022088715477","lng":"2.3543672852838644"},"title":"Saarinen (parc silic nord)","infos":"Rue saarinen 94065","openDataID":"4284910"},{"type":"station","subtype":"tram","lineNumber":"t7","icon":"tram-t7.png","center":{"lat":"48.750202953452586","lng":"2.35406825057595"},"title":"Saarinen (parc silic nord)","infos":"Rue saarinen 94065","openDataID":"4284911"},{"type":"station","subtype":"tram","lineNumber":"t7","icon":"tram-t7.png","center":{"lat":"48.752530711860864","lng":"2.3553059510145418"},"title":"Porte de rungis","infos":"Place du relais 94065","openDataID":"4284912"},{"type":"station","subtype":"tram","lineNumber":"t7","icon":"tram-t7.png","center":{"lat":"48.752674551430026","lng":"2.3551157008751726"},"title":"Porte de rungis","infos":"Place du relais 94065","openDataID":"4284913"},{"type":"station","subtype":"tram","lineNumber":"t7","icon":"tram-t7.png","center":{"lat":"48.78755481770094","lng":"2.3669614325199984"},"title":"Villejuif louis aragon","infos":"Avenue de stalingrad 94076","openDataID":"4284929"},{"type":"station","subtype":"tram","lineNumber":"t7","icon":"tram-t7.png","center":{"lat":"48.74664378197582","lng":"2.352911839651234"},"title":"Robert schuman (parc silic centre)","infos":"6 rue traversiere 94065","openDataID":"4284908"},{"type":"station","subtype":"tram","lineNumber":"t7","icon":"tram-t7.png","center":{"lat":"48.740909264659145","lng":"2.3530731896185713"},"title":"La fraternelle","infos":"Rue des alpes 94065","openDataID":"4284907"},{"type":"station","subtype":"tram","lineNumber":"t7","icon":"tram-t7.png","center":{"lat":"48.74658088759913","lng":"2.3527351341785154"},"title":"Robert schuman (parc silic centre)","infos":"6 rue traversiere 94065","openDataID":"4284909"},{"type":"station","subtype":"tram","lineNumber":"t7","icon":"tram-t7.png","center":{"lat":"48.762837717200874","lng":"2.367164828732289"},"title":"Auguste perret (cimetiere parisien)","infos":"20 avenue de la republique 94021","openDataID":"4284920"},{"type":"station","subtype":"tram","lineNumber":"t7","icon":"tram-t7.png","center":{"lat":"48.73961387407147","lng":"2.3597723941125155"},"title":"Helene boucher (orlytech)","infos":"2 allee helene boucher 91479","openDataID":"4284905"},{"type":"station","subtype":"tram","lineNumber":"t7","icon":"tram-t7.png","center":{"lat":"48.77177164960806","lng":"2.3679994421847956"},"title":"Moulin vert","infos":"Route de fontainebleau 94081","openDataID":"4284923"},{"type":"station","subtype":"tram","lineNumber":"t7","icon":"tram-t7.png","center":{"lat":"48.74087328431323","lng":"2.3532770253508573"},"title":"La fraternelle","infos":"Avenue de la gare 94065","openDataID":"4284906"},{"type":"station","subtype":"tram","lineNumber":"t7","icon":"tram-t7.png","center":{"lat":"48.77209534461233","lng":"2.3675101076806793"},"title":"Moulin vert","infos":"Avenue de stalingrad 94081","openDataID":"4284924"},{"type":"station","subtype":"tram","lineNumber":"t7","icon":"tram-t7.png","center":{"lat":"48.738847617809775","lng":"2.369542732850051"},"title":"Caroline aigle (orlyfret)","infos":"Avenue du marechal devaux 94054","openDataID":"4284903"},{"type":"station","subtype":"tram","lineNumber":"t7","icon":"tram-t7.png","center":{"lat":"48.763296055485625","lng":"2.367382622887771"},"title":"Auguste perret (cimetiere parisien)","infos":"20 avenue de la republique 94021","openDataID":"4284921"},{"type":"station","subtype":"tram","lineNumber":"t7","icon":"tram-t7.png","center":{"lat":"48.73983857298454","lng":"2.359813259979815"},"title":"Helene boucher (orlytech)","infos":"2 allee helene boucher 91479","openDataID":"4284904"},{"type":"station","subtype":"tram","lineNumber":"t7","icon":"tram-t7.png","center":{"lat":"48.76818535624203","lng":"2.3682284675383176"},"title":"Bretagne","infos":"Avenue de fontainebleau 94073","openDataID":"4284922"},{"type":"station","subtype":"tram","lineNumber":"t7","icon":"tram-t7.png","center":{"lat":"48.73381379506082","lng":"2.3709119878494467"},"title":"Coeur d'orly","infos":"Avenue de l'union 94054","openDataID":"4284901"},{"type":"station","subtype":"tram","lineNumber":"t7","icon":"tram-t7.png","center":{"lat":"48.78316863580082","lng":"2.3672173397642844"},"title":"Lamartine","infos":"Avenue de stalingrad 94076","openDataID":"4284927"},{"type":"station","subtype":"tram","lineNumber":"t7","icon":"tram-t7.png","center":{"lat":"48.738856524465646","lng":"2.369841701938621"},"title":"Caroline aigle (orlyfret)","infos":"Avenue du marechal devaux 94054","openDataID":"4284902"},{"type":"station","subtype":"tram","lineNumber":"t7","icon":"tram-t7.png","center":{"lat":"48.77906104165432","lng":"2.367568564265934"},"title":"Domaine cherioux","infos":"Route de fontainebleau 94021","openDataID":"4284925"},{"type":"station","subtype":"tram","lineNumber":"t7","icon":"tram-t7.png","center":{"lat":"48.73384959698137","lng":"2.3714419408440452"},"title":"Coeur d'orly","infos":"Avenue de l'union 94054","openDataID":"4284900"},{"type":"station","subtype":"tram","lineNumber":"t7","icon":"tram-t7.png","center":{"lat":"48.778863409174654","lng":"2.3671604573737404"},"title":"Domaine cherioux","infos":"Avenue armand petitjean 94021","openDataID":"4284926"},{"type":"station","subtype":"tram","lineNumber":"t7","icon":"tram-t7.png","center":{"lat":"48.715216538741494","lng":"2.3720001812741356"},"title":"Porte de l'essonne","infos":"Rue paul demange 91027","openDataID":"4284897"},{"type":"station","subtype":"tram","lineNumber":"t7","icon":"tram-t7.png","center":{"lat":"48.72991364522915","lng":"2.3680290369907837"},"title":"Aeroport d'orly","infos":"Pont 14 91479","openDataID":"4284898"},{"type":"station","subtype":"tram","lineNumber":"t7","icon":"tram-t7.png","center":{"lat":"48.75971904378714","lng":"2.3663473510391806"},"title":"Porte de thiais (marche international)","infos":"Avenue de la cite 94021","openDataID":"4284919"},{"type":"station","subtype":"tram","lineNumber":"t7","icon":"tram-t7.png","center":{"lat":"48.75986290682859","lng":"2.366129915658932"},"title":"Porte de thiais (marche international)","infos":"Rue de la pompe 94021","openDataID":"4284918"},{"type":"station","subtype":"tram","lineNumber":"t7","icon":"tram-t7.png","center":{"lat":"48.72963508042285","lng":"2.3677435484138623"},"title":"Aeroport d'orly","infos":"Rue du musee 91479","openDataID":"4284899"}]